locator_domain,page_url,location_name,street_address,city,state,zip,store_number,phone,latitude,longitude,hours_of_operation,country_code,location_type
picknsave.com,https://www.picknsave.com/stores/search?searchText=19125,BP,3608 WEST CHESTER PIKE,NEWTOWN SQ,PA,19073,90273,,39.98668,-75.39953,,US,fuel
picknsave.com,https://www.picknsave.com/stores/search?searchText=19125,BP,1001 PULASKI HWY,HVRE DE GRACE,MD,21078,90443,,39.54638,-76.10681,,US,fuel
picknsave.com,https://www.picknsave.com/stores/search?searchText=19125,BP,1327 POLICY DR,BELCAMP,MD,21017,90234,,39.477975,-76.24914,,US,fuel
picknsave.com,https://www.picknsave.com/stores/search?searchText=19125,BP,513 WASHINGTON AVE,CHESTERTOWN,MD,21620,91814,,39.22107,-76.068371,,US,fuel
picknsave.com,https://www.picknsave.com/stores/search?searchText=19125,BP,2201 PULASKI HWY,EDGEWOOD,MD,21040,90574,,39.436485,-76.306384,,US,fuel
picknsave.com,https://www.picknsave.com/stores/search?searchText=19125,BP,1712 PULASKI HWY,EDGEWOOD,MD,21040,90528,,39.43448,-76.32075,,US,fuel
picknsave.com,https://www.picknsave.com/stores/search?searchText=19125,BP,630 NW FRONT ST,MILFORD,DE,19963,90530,,38.91558,-75.44207,,US,fuel
picknsave.com,https://www.picknsave.com/stores/search?searchText=19125,BP,5250 CAMPBELL BLVD,NOTTINGHAM,MD,21236,90557,,39.369354,-76.453417,,US,fuel
picknsave.com,https://www.picknsave.com/stores/search?searchText=19125,BP,8809 BELAIR RD,NOTTINGHAM,MD,21236,90314,,39.394377,-76.485508,,US,fuel
picknsave.com,https://www.picknsave.com/stores/search?searchText=19125,BP,601 COMPASS RD,MIDDLE RIVER,MD,21220,90176,,39.3434,-76.44931,,US,fuel
picknsave.com,https://www.picknsave.com/stores/search?searchText=19125,BP,9300 HARFORD RD,PARKVILLE,MD,21234,90577,,39.39095,-76.52807,,US,fuel
picknsave.com,https://www.picknsave.com/stores/search?searchText=19125,BP,17580 COASTAL HWY,LEWES,DE,19958,90588,,38.748412,-75.170762,,US,fuel
picknsave.com,https://www.picknsave.com/stores/search?searchText=19125,BP,2400 E JOPPA RD,PARKVILLE,MD,21234,90358,,39.39836,-76.53579,,US,fuel
picknsave.com,https://www.picknsave.com/stores/search?searchText=19125,BP,701 EASTERN BLVD,ESSEX,MD,21221,90159,,39.31033,-76.47096,,US,fuel
picknsave.com,https://www.picknsave.com/stores/search?searchText=19125,BP,220 EASTERN BLVD,ESSEX,MD,21221,90279,,39.30612,-76.48095,,US,fuel
picknsave.com,https://www.picknsave.com/stores/search?searchText=19125,BP,1601 E JOPPA RD,TOWSON,MD,21286,90485,,39.39654,-76.56758,,US,fuel
picknsave.com,https://www.picknsave.com/stores/search?searchText=19125,BP,6019 BELAIR RD,BALTIMORE,MD,21206,90249,,39.34795,-76.53838,,US,fuel
picknsave.com,https://www.picknsave.com/stores/search?searchText=19125,BP,212 GRANGE HALL RD,QUEENSTOWN,MD,21658,91702,,38.95604,-76.07609,,US,fuel
picknsave.com,https://www.picknsave.com/stores/search?searchText=19125,BP,6901 LOCH RAVEN BLVD,TOWSON,MD,21286,90134,,39.38543,-76.57645,,US,fuel
picknsave.com,https://www.picknsave.com/stores/search?searchText=19125,BP,7500 PULASKI HWY,ROSEDALE,MD,21237,90584,,39.31257,-76.52551,,US,fuel
picknsave.com,https://www.picknsave.com/stores/search?searchText=19125,BP,40 E TIMONIUM RD,LUTHVLE TIMON,MD,21093,90533,,39.44249,-76.62349,,US,fuel
picknsave.com,https://www.picknsave.com/stores/search?searchText=19125,BP,2446 YORK RD,LUTHVLE TIMON,MD,21093,90403,,39.45652,-76.63311,,US,fuel
picknsave.com,https://www.picknsave.com/stores/search?searchText=19125,BP,1601 YORK RD,LUTHVLE TIMON,MD,21093,90538,,39.423835,-76.61845,,US,fuel
picknsave.com,https://www.picknsave.com/stores/search?searchText=19125,BP,5000 HARFORD RD,BALTIMORE,MD,21214,90425,,39.347294,-76.56567,,US,fuel
picknsave.com,https://www.picknsave.com/stores/search?searchText=19125,BP,6425 EASTERN AVE,BALTIMORE,MD,21224,90571,,39.287715,-76.537723,,US,fuel
picknsave.com,https://www.picknsave.com/stores/search?searchText=19125,BP,4901 ERDMAN AVE,BALTIMORE,MD,21205,90572,,39.30682,-76.5593,,US,fuel
picknsave.com,https://www.picknsave.com/stores/search?searchText=19125,BP,6648 HOLABIRD AVE,BALTIMORE,MD,21224,90366,,39.272524,-76.53229,,US,fuel
picknsave.com,https://www.picknsave.com/stores/search?searchText=19125,BP,1501 HAVENWOOD RD,BALTIMORE,MD,21218,90373,,39.34064,-76.59266,,US,fuel
picknsave.com,https://www.picknsave.com/stores/search?searchText=19125,BP,5320 YORK RD,BALTIMORE,MD,21212,90103,,39.35501,-76.60988,,US,fuel
picknsave.com,https://www.picknsave.com/stores/search?searchText=19125,BP,3505 PULASKI HWY,BALTIMORE,MD,21224,90454,,39.296151,-76.568693,,US,fuel
picknsave.com,https://www.picknsave.com/stores/search?searchText=19125,BP,1900 BELAIR RD 12,BALTIMORE,MD,21213,90411,,39.31268,-76.58391,,US,fuel
picknsave.com,https://www.picknsave.com/stores/search?searchText=19125,BP,18705 SUSSEX HWY,BRIDGEVILLE,DE,19933,90477,,38.722291,-75.590146,,US,fuel
picknsave.com,https://www.picknsave.com/stores/search?searchText=19125,BP,2500 HARFORD RD,BALTIMORE,MD,21218,90569,,39.316795,-76.59528,,US,fuel
picknsave.com,https://www.picknsave.com/stores/search?searchText=19125,BP,1200 E NORTH AVE,BALTIMORE,MD,21202,90439,,39.31178,-76.60264,,US,fuel
picknsave.com,https://www.picknsave.com/stores/search?searchText=19125,BP,2500 GREENMOUNT AVE,BALTIMORE,MD,21218,90565,,39.31812,-76.60945,,US,fuel
picknsave.com,https://www.picknsave.com/stores/search?searchText=19125,BP,2207 N HOWARD ST,BALTIMORE,MD,21218,90246,,39.314182,-76.619474,,US,fuel
picknsave.com,https://www.picknsave.com/stores/search?searchText=19125,BP,1015 ORLEANS ST,BALTIMORE,MD,21202,90492,,39.29479,-76.60475,,US,fuel
picknsave.com,https://www.picknsave.com/stores/search?searchText=19125,BP,17 E MOUNT ROYAL AVE,BALTIMORE,MD,21202,90372,,39.305461,-76.615287,,US,fuel
picknsave.com,https://www.picknsave.com/stores/search?searchText=19125,BP,1465 KEY HWY,BALTIMORE,MD,21230,90345,,39.27189,-76.59941,,US,fuel
picknsave.com,https://www.picknsave.com/stores/search?searchText=19125,BP,1100 S HANOVER ST,BALTIMORE,MD,21230,90453,,39.27658,-76.61552,,US,fuel
picknsave.com,https://www.picknsave.com/stores/search?searchText=19125,BP,32369 LONG NECK RD,MILLSBORO,DE,19966,90199,,38.63227,-75.18124,,US,fuel
picknsave.com,https://www.picknsave.com/stores/search?searchText=19125,BP,4419 PARK HEIGHTS AVE,BALTIMORE,MD,21215,90285,,39.340836,-76.667234,,US,fuel
picknsave.com,https://www.picknsave.com/stores/search?searchText=19125,BP,3312 REISTERSTOWN RD,BALTIMORE,MD,21215,90550,,39.3245,-76.65702,,US,fuel
picknsave.com,https://www.picknsave.com/stores/search?searchText=19125,BP,2401 S HANOVER ST,BALTIMORE,MD,21230,90296,,39.26374,-76.61467,,US,fuel
picknsave.com,https://www.picknsave.com/stores/search?searchText=19125,BP,2850 LIBERTY HEIGHTS AVE,BALTIMORE,MD,21215,90154,,39.32184,-76.66349,,US,fuel
picknsave.com,https://www.picknsave.com/stores/search?searchText=19125,BP,4101 PENNINGTON AVE,CURTIS BAY,MD,21226,90255,,39.228333,-76.58874,,US,fuel
picknsave.com,https://www.picknsave.com/stores/search?searchText=19125,BP,900 N MONROE ST,BALTIMORE,MD,21217,90471,,39.29874,-76.6475,,US,fuel
picknsave.com,https://www.picknsave.com/stores/search?searchText=19125,BP,3601 DOLFIELD AVE,BALTIMORE,MD,21215,90542,,39.336044,-76.675422,,US,fuel
picknsave.com,https://www.picknsave.com/stores/search?searchText=19125,BP,5100 REISTERSTOWN RD,BALTIMORE,MD,21215,90127,,39.34213,-76.68229,,US,fuel
picknsave.com,https://www.picknsave.com/stores/search?searchText=19125,BP,101 W PATAPSCO AVE,BROOKLYN,MD,21225,90308,,39.23913,-76.6116,,US,fuel
picknsave.com,https://www.picknsave.com/stores/search?searchText=67521,Little Dillons Hall Street Dillons,531 West 27Th Street,Hays,KS,67601,00014,7856281016,38.8862339,-99.3353089,"Sun: 7:00 AM - 10:00 PM, Mon: 7:00 AM - 10:00 PM, Tue: 7:00 AM - 10:00 PM, Wed: 7:00 AM - 10:00 PM, Thu: 7:00 AM - 10:00 PM, Fri: 7:00 AM - 10:00 PM, Sat: 7:00 AM - 10:00 PM, ",US,fuel
picknsave.com,https://www.picknsave.com/stores/search?searchText=67521,Kwik Shop,1301 Vine Street,Hays,KS,67601,70054,,38.871176,-99.318317,,US,fuel
picknsave.com,https://www.picknsave.com/stores/search?searchText=67521,Big Dillons Vine Street Dillons,1902 Vine St,Hays,KS,67601,00061,7856286137,38.875425,-99.3163489,"Sun: 7:00 AM - 11:00 PM, Mon: 7:00 AM - 11:00 PM, Tue: 7:00 AM - 11:00 PM, Wed: 7:00 AM - 11:00 PM, Thu: 7:00 AM - 11:00 PM, Fri: 7:00 AM - 11:00 PM, Sat: 7:00 AM - 11:00 PM, ",US,fuel
picknsave.com,https://www.picknsave.com/stores/search?searchText=67521,Kwik Shop,100 East Long Box 418,Dighton,KS,67839,70032,,38.481893,-100.466626,,US,fuel
picknsave.com,https://www.picknsave.com/stores/search?searchText=67521,Kwik Shop,1323 Broadway,Larned,KS,67550,70065,,38.187825,-99.098757,,US,fuel
picknsave.com,https://www.picknsave.com/stores/search?searchText=67521,Kwik Shop,3907 Broadway,Great Bend,KS,67530,70034,,38.366077,-98.791723,,US,fuel
picknsave.com,https://www.picknsave.com/stores/search?searchText=67521,Big Dillons 10th Street Dillons,4107 10Th St,Great Bend,KS,67530,00051,6207923591,38.3599667,-98.7941046,"Sun: 7:00 AM - 11:00 PM, Mon: 7:00 AM - 11:00 PM, Tue: 7:00 AM - 11:00 PM, Wed: 7:00 AM - 11:00 PM, Thu: 7:00 AM - 11:00 PM, Fri: 7:00 AM - 11:00 PM, Sat: 7:00 AM - 11:00 PM, ",US,fuel
picknsave.com,https://www.picknsave.com/stores/search?searchText=67521,Kwik Shop,2334 North Main,Great Bend,KS,67530,70049,,38.376061,-98.764823,,US,fuel
picknsave.com,https://www.picknsave.com/stores/search?searchText=67521,Kwik Shop,1811 Central,Dodge City,KS,67801,70007,,37.766261,-100.016723,,US,fuel
picknsave.com,https://www.picknsave.com/stores/search?searchText=67521,Dodge City Dillons,1700 N 14Th Ave,Dodge City,KS,67801,00001,6202256130,37.7647784,-100.0314798,"Sun: 7:00 AM - 11:00 PM, Mon: 7:00 AM - 11:00 PM, Tue: 7:00 AM - 11:00 PM, Wed: 7:00 AM - 11:00 PM, Thu: 7:00 AM - 11:00 PM, Fri: 7:00 AM - 11:00 PM, Sat: 7:00 AM - 11:00 PM, ",US,fuel
picknsave.com,https://www.picknsave.com/stores/search?searchText=67521,Turkey Hill,721 S. Hamilton Road,Whitehall,OH,43213,70016,,37.753999,-100.033394,,US,fuel
picknsave.com,https://www.picknsave.com/stores/search?searchText=67521,Turkey Hill,6195 Cleveland Ave,Columbus,OH,43231,70002,,37.976076,-100.846707,,US,fuel
picknsave.com,https://www.picknsave.com/stores/search?searchText=67521,Greensburg,203 W Kansas Ave,Greensburg,KS,67054,00704,6207232224,37.605786,-99.294799,"Sun: 6:00 AM - 11:00 PM, Mon: 6:00 AM - 11:00 PM, Tue: 6:00 AM - 11:00 PM, Wed: 6:00 AM - 11:00 PM, Thu: 6:00 AM - 11:00 PM, Fri: 6:00 AM - 11:00 PM, Sat: 6:00 AM - 11:00 PM, ",US,fuel
picknsave.com,https://www.picknsave.com/stores/search?searchText=67521,Dillons East,1305 E Kansas Ave,Garden City,KS,67846,00005,6202754274,37.9764768,-100.8579413,"Sun: 7:00 AM - 11:00 PM, Mon: 7:00 AM - 11:00 PM, Tue: 7:00 AM - 11:00 PM, Wed: 7:00 AM - 11:00 PM, Thu: 7:00 AM - 11:00 PM, Fri: 7:00 AM - 11:00 PM, Sat: 7:00 AM - 11:00 PM, ",US,fuel
picknsave.com,https://www.picknsave.com/stores/search?searchText=67521,Jones Ave Dillons West Dillons,1211 Buffalo Jones Ave,Garden City,KS,67846,00060,6202750151,37.9766476,-100.8846112,"Sun: 7:00 AM - 11:00 PM, Mon: 7:00 AM - 11:00 PM, Tue: 7:00 AM - 11:00 PM, Wed: 7:00 AM - 11:00 PM, Thu: 7:00 AM - 11:00 PM, Fri: 7:00 AM - 11:00 PM, Sat: 7:00 AM - 11:00 PM, ",US,fuel
picknsave.com,https://www.picknsave.com/stores/search?searchText=67521,Kwik Shop,510 North Douglas,Ellsworth,KS,67439,70024,,38.732722,-98.228036,,US,fuel
picknsave.com,https://www.picknsave.com/stores/search?searchText=67521,Colby Dillons,1605 S Range Ave,Colby,KS,67701,00050,7854621300,39.3741781,-101.0531466,"Sun: 7:00 AM - 10:00 PM, Mon: 7:00 AM - 10:00 PM, Tue: 7:00 AM - 10:00 PM, Wed: 7:00 AM - 10:00 PM, Thu: 7:00 AM - 10:00 PM, Fri: 7:00 AM - 10:00 PM, Sat: 7:00 AM - 10:00 PM, ",US,fuel
picknsave.com,https://www.picknsave.com/stores/search?searchText=67521,Turkey Hill,5350 Tuttle Crossing Blvd,Dublin,OH,43016,70005,,37.645353,-98.750525,,US,fuel
picknsave.com,https://www.picknsave.com/stores/search?searchText=67521,Pratt Dillons,1108 E 1St St,Pratt,KS,67124,00023,6206725597,37.6465387,-98.7276217,"Sun: 7:00 AM - 11:00 PM, Mon: 7:00 AM - 11:00 PM, Tue: 7:00 AM - 11:00 PM, Wed: 7:00 AM - 11:00 PM, Thu: 7:00 AM - 11:00 PM, Fri: 7:00 AM - 11:00 PM, Sat: 7:00 AM - 11:00 PM, ",US,fuel
picknsave.com,https://www.picknsave.com/stores/search?searchText=67521,Kwik Shop,12 South Nickerson,Nickerson,KS,67561,70057,,38.144846,-98.083565,,US,fuel
picknsave.com,https://www.picknsave.com/stores/search?searchText=67521,Kwik Shop,1701 North Monroe,Hutchinson,KS,67502,70076,,38.071685,-97.941026,,US,fuel
picknsave.com,https://www.picknsave.com/stores/search?searchText=67521,Kwik Shop,2617 North Main,Hutchinson,KS,67502,70017,,38.082896,-97.932414,,US,fuel
picknsave.com,https://www.picknsave.com/stores/search?searchText=67521,Kwik Shop,4216 North Plum,Hutchinson,KS,67502,70075,,38.100695,-97.921379,,US,fuel
picknsave.com,https://www.picknsave.com/stores/search?searchText=67521,Kwik Shop,500 North Monroe Street,Hutchinson,KS,67501,70050,,38.058611,-97.939938,,US,fuel
picknsave.com,https://www.picknsave.com/stores/search?searchText=67521,Kwik Shop,434 East 17th,Hutchinson,KS,67501,70056,,38.072353,-97.922611,,US,fuel
picknsave.com,https://www.picknsave.com/stores/search?searchText=67521,Kwik Shop,8 North Main,South Hutchinson,KS,67505,70071,,38.0282,-97.9398,,US,fuel
picknsave.com,https://www.picknsave.com/stores/search?searchText=67521,Kwik Shop,1330 East 30th Avenue,Hutchinson,KS,67502,70092,,38.087173,-97.904242,,US,fuel
picknsave.com,https://www.picknsave.com/stores/search?searchText=67521,Kwik Shop,1006 South Main,South Hutchinson,KS,67505,70001,,38.014773,-97.939363,,US,fuel
picknsave.com,https://www.picknsave.com/stores/search?searchText=67521,Hutch Marketplace,3200 Plaza East Dr.,Hutchinson,KS,67502,00097,6206655579,38.0890901,-97.895862,"Sun: 7:00 AM - 11:00 PM, Mon: 7:00 AM - 11:00 PM, Tue: 7:00 AM - 11:00 PM, Wed: 7:00 AM - 11:00 PM, Thu: 7:00 AM - 11:00 PM, Fri: 7:00 AM - 11:00 PM, Sat: 7:00 AM - 11:00 PM, ",US,fuel
picknsave.com,https://www.picknsave.com/stores/search?searchText=67521,Kwik Shop,1401 East 17th,Hutchinson,KS,67501,70089,,38.071798,-97.903325,,US,fuel
picknsave.com,https://www.picknsave.com/stores/search?searchText=67521,Kwik Shop,1401 East 4th Avenue,Hutchinson,KS,67501,70040,,38.0571,-97.9035,,US,fuel
picknsave.com,https://www.picknsave.com/stores/search?searchText=67521,McPherson,1320 N Main St,Mc Pherson,KS,67460,00036,6202416084,38.3834074,-97.6656704,"Sun: 7:00 AM - 11:00 PM, Mon: 7:00 AM - 11:00 PM, Tue: 7:00 AM - 11:00 PM, Wed: 7:00 AM - 11:00 PM, Thu: 7:00 AM - 11:00 PM, Fri: 7:00 AM - 11:00 PM, Sat: 7:00 AM - 11:00 PM, ",US,fuel
picknsave.com,https://www.picknsave.com/stores/search?searchText=67521,Kwik Shop,1727 West Crawford,Salina,KS,67401,70068,,38.826679,-97.634565,,US,fuel
picknsave.com,https://www.picknsave.com/stores/search?searchText=67521,Kwik Shop,820 East Kansas,McPherson,KS,67460,70046,,38.369225,-97.653857,,US,fuel
picknsave.com,https://www.picknsave.com/stores/search?searchText=67521,Sunset Plaza Dillons Broadway Blvd Crawford Dillons,1201 W Crawford St,Salina,KS,67401,00041,7858278743,38.8260115,-97.6236547,"Sun: 7:00 AM - 11:00 PM, Mon: 7:00 AM - 11:00 PM, Tue: 7:00 AM - 11:00 PM, Wed: 7:00 AM - 11:00 PM, Thu: 7:00 AM - 11:00 PM, Fri: 7:00 AM - 11:00 PM, Sat: 7:00 AM - 11:00 PM, ",US,fuel
picknsave.com,https://www.picknsave.com/stores/search?searchText=67521,Turkey Hill,3900 S. High Street,Columbus,OH,43207,70006,,38.783131,-97.613831,,US,fuel
picknsave.com,https://www.picknsave.com/stores/search?searchText=67521,Planet Avenue Dillons,2350 Planet Ave,Salina,KS,67401,00074,7858239403,38.7995496,-97.6149182,"Sun: 7:00 AM - 11:00 PM, Mon: 7:00 AM - 11:00 PM, Tue: 7:00 AM - 11:00 PM, Wed: 7:00 AM - 11:00 PM, Thu: 7:00 AM - 11:00 PM, Fri: 7:00 AM - 11:00 PM, Sat: 7:00 AM - 11:00 PM, ",US,fuel
picknsave.com,https://www.picknsave.com/stores/search?searchText=67521,Kwik Shop,1600 South 9th,Salina,KS,67401,70041,,38.814089,-97.613281,,US,fuel
picknsave.com,https://www.picknsave.com/stores/search?searchText=67521,Kwik Shop,2003 South Ohio,Salina,KS,67401,70083,,38.808566,-97.593846,,US,fuel
picknsave.com,https://www.picknsave.com/stores/search?searchText=67521,Ohio Cloud Dillons New Dillons,1235 E Cloud St,Salina,KS,67401,00095,7858278775,38.813746,-97.592327,"Sun: 7:00 AM - 11:00 PM, Mon: 7:00 AM - 11:00 PM, Tue: 7:00 AM - 11:00 PM, Wed: 7:00 AM - 11:00 PM, Thu: 7:00 AM - 11:00 PM, Fri: 7:00 AM - 11:00 PM, Sat: 7:00 AM - 11:00 PM, ",US,fuel
picknsave.com,https://www.picknsave.com/stores/search?searchText=67521,Kwik Shop,657 Fairdale Road,Salina,KS,67401,70033,,38.827465,-97.572335,,US,fuel
picknsave.com,https://www.picknsave.com/stores/search?searchText=67521,Kwik Shop,100 Industrial Drive / P.,Haven,KS,67543,70048,,37.897243,-97.782302,,US,fuel
picknsave.com,https://www.picknsave.com/stores/search?searchText=67521,Kwik Shop,515 East Dean P.O. Box 55,Burrton,KS,67020,70018,,38.028715,-97.6665446,,US,fuel
picknsave.com,https://www.picknsave.com/stores/search?searchText=67521,Liberal Dillons,1417 N Kansas Ave,Liberal,KS,67901,00073,6206264227,37.05355,-100.920279,"Sun: 7:00 AM - 11:00 PM, Mon: 7:00 AM - 11:00 PM, Tue: 7:00 AM - 11:00 PM, Wed: 7:00 AM - 11:00 PM, Thu: 7:00 AM - 11:00 PM, Fri: 7:00 AM - 11:00 PM, Sat: 7:00 AM - 11:00 PM, ",US,fuel
picknsave.com,https://www.picknsave.com/stores/search?searchText=67521,Kwik Shop,20300 West Kellogg Drive,Goddard,KS,67052,70079,,37.664811,-97.575803,,US,fuel
picknsave.com,https://www.picknsave.com/stores/search?searchText=67521,North Dillons,1216 N Main St,Newton,KS,67114,00084,3162834180,38.0564088,-97.3428343,"Sun: 7:00 AM - 11:00 PM, Mon: 7:00 AM - 11:00 PM, Tue: 7:00 AM - 11:00 PM, Wed: 7:00 AM - 11:00 PM, Thu: 7:00 AM - 11:00 PM, Fri: 7:00 AM - 11:00 PM, Sat: 7:00 AM - 11:00 PM, ",US,fuel
picknsave.com,https://www.picknsave.com/stores/search?searchText=29301,BP,7800 WRRN BRNTHY HWY,SPARTANBURG,SC,29301,91728,,34.93715,-81.99314,,US,fuel
picknsave.com,https://www.picknsave.com/stores/search?searchText=29301,BP,1110 SIMUEL RD,SPARTANBURG,SC,29301,90346,,34.96855,-82.00021,,US,fuel
picknsave.com,https://www.picknsave.com/stores/search?searchText=29301,BP,7113 LONE OAK RD,SPARTANBURG,SC,29303,90188,,34.985619,-81.97305,,US,fuel
picknsave.com,https://www.picknsave.com/stores/search?searchText=29301,BP,2030 NEW CUT RD,SPARTANBURG,SC,29303,90451,,34.991254,-82.021671,,US,fuel
picknsave.com,https://www.picknsave.com/stores/search?searchText=29301,BP,9508 ASHEVILLE HWY,INMAN,SC,29349,90579,,35.025548,-82.031556,,US,fuel
picknsave.com,https://www.picknsave.com/stores/search?searchText=29301,BP,1402 E MAIN ST,DUNCAN,SC,29334,90481,,34.915335,-82.109079,,US,fuel
picknsave.com,https://www.picknsave.com/stores/search?searchText=29301,BP,3697 CHESNEE HWY,CHESNEE,SC,29323,90562,,35.06236,-81.88072,,US,fuel
picknsave.com,https://www.picknsave.com/stores/search?searchText=29301,BP,4225 WALNUT GROVE RD,ROEBUCK,SC,29376,91764,,34.747211,-81.956136,,US,fuel
picknsave.com,https://www.picknsave.com/stores/search?searchText=29301,BP,1121 HYATT ST,GAFFNEY,SC,29341,91898,,35.08559,-81.708369,,US,fuel
picknsave.com,https://www.picknsave.com/stores/search?searchText=29301,BP,720 S GRANARD ST,GAFFNEY,SC,29341,90210,,35.066912,-81.657578,,US,fuel
picknsave.com,https://www.picknsave.com/stores/search?searchText=29301,BP,627 N MAIN ST,MAULDIN,SC,29662,91834,,34.790444,-82.313649,,US,fuel
picknsave.com,https://www.picknsave.com/stores/search?searchText=29301,BP,2900 LAURENS RD,GREENVILLE,SC,29607,90114,,34.81004,-82.3329,,US,fuel
picknsave.com,https://www.picknsave.com/stores/search?searchText=29301,BP,777 E FARIS RD,GREENVILLE,SC,29607,91830,,34.831912,-82.373716,,US,fuel
picknsave.com,https://www.picknsave.com/stores/search?searchText=29301,BP,415 MAULDIN RD,GREENVILLE,SC,29605,91829,,34.8019,-82.37243,,US,fuel
picknsave.com,https://www.picknsave.com/stores/search?searchText=29301,BP,2001 AUGUSTA ST,GREENVILLE,SC,29605,90500,,34.82557,-82.395585,,US,fuel
picknsave.com,https://www.picknsave.com/stores/search?searchText=29301,BP,1550 HIGHWAY 108 W,COLUMBUS,NC,28722,90599,,35.23915,-82.22279,,US,fuel
picknsave.com,https://www.picknsave.com/stores/search?searchText=29301,BP,11 FRONTAGE RD,TRAVELERS RST,SC,29690,91828,,34.94969,-82.43959,,US,fuel
picknsave.com,https://www.picknsave.com/stores/search?searchText=29301,BP,1631 WHITE HORSE RD,GREENVILLE,SC,29605,91822,,34.79304,-82.41834,,US,fuel
picknsave.com,https://www.picknsave.com/stores/search?searchText=29301,BP,873 S BROADWAY ST,FOREST CITY,NC,28043,90616,,35.31287,-81.85728,,US,fuel
picknsave.com,https://www.picknsave.com/stores/search?searchText=29301,BP,403 S MAIN ST,SHELBY,NC,28152,90102,,35.240144,-81.665356,,US,fuel
picknsave.com,https://www.picknsave.com/stores/search?searchText=29301,BP,1380 OZONE DR,SALUDA,NC,28773,90274,,35.245766,-82.32933,,US,fuel
picknsave.com,https://www.picknsave.com/stores/search?searchText=29301,BP,1140 CHURCH ST,LAURENS,SC,29360,91826,,34.52425,-82.041516,,US,fuel
picknsave.com,https://www.picknsave.com/stores/search?searchText=29301,BP,2900 HIGHWAY 153,PIEDMONT,SC,29673,90605,,34.77418,-82.46199,,US,fuel
picknsave.com,https://www.picknsave.com/stores/search?searchText=29301,BP,111 S WASHINGTON ST,RUTHERFORDTON,NC,28139,90320,,35.36575,-81.95799,,US,fuel
picknsave.com,https://www.picknsave.com/stores/search?searchText=29301,BP,901 N MOUNTAIN ST,BLACKSBURG,SC,29702,90185,,35.137858,-81.509109,,US,fuel
picknsave.com,https://www.picknsave.com/stores/search?searchText=29301,BP,19267 HIGHWAY 72 E,CLINTON,SC,29325,91548,,34.498854,-81.841428,,US,fuel
picknsave.com,https://www.picknsave.com/stores/search?searchText=29301,BP,1101 HIGHWAY 86,PIEDMONT,SC,29673,90322,,34.70188,-82.47814,,US,fuel
picknsave.com,https://www.picknsave.com/stores/search?searchText=29301,BP,11792 AUGUSTA RD,HONEA PATH,SC,29654,90455,,34.501644,-82.29089,,US,fuel
picknsave.com,https://www.picknsave.com/stores/search?searchText=29301,BP,1605 SPARTANBURG HWY,HENDERSONVLLE,NC,28792,91823,,35.29827,-82.43674,,US,fuel
picknsave.com,https://www.picknsave.com/stores/search?searchText=29301,BP,900 FALLSTON RD,SHELBY,NC,28150,90264,,35.30585,-81.52354,,US,fuel
picknsave.com,https://www.picknsave.com/stores/search?searchText=29301,BP,1525 ANDERSON DR,WILLIAMSTON,SC,29697,90213,,34.614593,-82.500897,,US,fuel
picknsave.com,https://www.picknsave.com/stores/search?searchText=29301,BP,3536 WHITMIRE HWY,CLINTON,SC,29325,91137,,34.438328,-81.762881,,US,fuel
picknsave.com,https://www.picknsave.com/stores/search?searchText=29301,BP,2120 SHELBY RD,KINGS MTN,NC,28086,90410,,35.24529,-81.40528,,US,fuel
picknsave.com,https://www.picknsave.com/stores/search?searchText=29301,BP,208 S MAIN ST,BELTON,SC,29627,90317,,34.52164,-82.49312,,US,fuel
picknsave.com,https://www.picknsave.com/stores/search?searchText=29301,BP,4500 HIGHWAY 81 N,ANDERSON,SC,29621,90371,,34.629721,-82.600982,,US,fuel
picknsave.com,https://www.picknsave.com/stores/search?searchText=29301,BP,724 YORK RD,KINGS MTN,NC,28086,91815,,35.228816,-81.333055,,US,fuel
picknsave.com,https://www.picknsave.com/stores/search?searchText=29301,BP,1152 US HIGHWAY 321 S,YORK,SC,29745,90297,,35.018534,-81.250608,,US,fuel
picknsave.com,https://www.picknsave.com/stores/search?searchText=29301,BP,1129 FILBERT HWY,YORK,SC,29745,90305,,35.016586,-81.249288,,US,fuel
picknsave.com,https://www.picknsave.com/stores/search?searchText=29301,BP,1000 S MAIN ST,CLOVER,SC,29710,90133,,35.09899,-81.23295,,US,fuel
picknsave.com,https://www.picknsave.com/stores/search?searchText=29301,BP,5245 FALLSTON RD,LAWNDALE,NC,28090,90406,,35.446908,-81.501511,,US,fuel
picknsave.com,https://www.picknsave.com/stores/search?searchText=29301,Amoco,950 HWY 321 S,YORK,SC,29745,90180,,35.00818,-81.19655,,US,fuel
picknsave.com,https://www.picknsave.com/stores/search?searchText=29301,BP,8917 BOYLSTON HWY,MILLS RIVER,NC,28759,91818,,35.34578,-82.62175,,US,fuel
picknsave.com,https://www.picknsave.com/stores/search?searchText=29301,BP,1008 E CHURCH ST,CHERRYVILLE,NC,28021,90276,,35.38599,-81.36754,,US,fuel
picknsave.com,https://www.picknsave.com/stores/search?searchText=29301,BP,4536 LIBERTY HWY,ANDERSON,SC,29621,91825,,34.57733,-82.69123,,US,fuel
picknsave.com,https://www.picknsave.com/stores/search?searchText=29301,BP,2170 HIGHWAY 321 N,CLOVER,SC,29710,90490,,35.15765,-81.19929,,US,fuel
picknsave.com,https://www.picknsave.com/stores/search?searchText=29301,BP,3027 N MAIN ST,ANDERSON,SC,29621,90606,,34.53667,-82.66702,,US,fuel
picknsave.com,https://www.picknsave.com/stores/search?searchText=29301,BP,501 E GREENVILLE ST,ANDERSON,SC,29621,90601,,34.511987,-82.648525,,US,fuel
picknsave.com,https://www.picknsave.com/stores/search?searchText=29301,BP,4323 US 221 S,MARION,NC,28752,91480,,35.640064,-81.985892,,US,fuel
picknsave.com,https://www.picknsave.com/stores/search?searchText=29301,BP,356 CATAWBA AVE,OLD FORT,NC,28762,90735,,35.62405,-82.18114,,US,fuel
picknsave.com,https://www.picknsave.com/stores/search?searchText=29301,BP,2815 SUGAR HILL RD,MARION,NC,28752,91503,,35.648869,-82.033284,,US,fuel
picknsave.com,https://www.picknsave.com/stores/search?searchText=58451,"906 Camel, Gillette",906 Camel Dr,Gillette,WY,82716,00180,3076821103,44.2809,-105.4903522,"Sun: 6:00 AM - 11:00 PM, Mon: 6:00 AM - 11:00 PM, Tue: 6:00 AM - 11:00 PM, Wed: 6:00 AM - 11:00 PM, Thu: 6:00 AM - 11:00 PM, Fri: 6:00 AM - 11:00 PM, Sat: 6:00 AM - 11:00 PM, ",US,fuel
picknsave.com,https://www.picknsave.com/stores/search?searchText=58451,Loaf \'N Jug,2800 South Hwy 59,Gillette,WY,82716,70025,,44.269056,-105.493983,,US,fuel
picknsave.com,https://www.picknsave.com/stores/search?searchText=58451,BP,30217 STATE ROAD 35 77,DANBURY,WI,54830,90239,,46.007221,-92.362977,,US,fuel
picknsave.com,https://www.picknsave.com/stores/search?searchText=58451,BP,311 BELKNAP ST,SUPERIOR,WI,54880,90875,,46.720585,-92.082973,,US,fuel
picknsave.com,https://www.picknsave.com/stores/search?searchText=58451,BP,97 N CASCADE ST,OSCEOLA,WI,54020,90408,,45.319684,-92.705867,,US,fuel
picknsave.com,https://www.picknsave.com/stores/search?searchText=58451,BP,3802 E 2ND ST,SUPERIOR,WI,54880,90818,,46.68999,-92.02613,,US,fuel
picknsave.com,https://www.picknsave.com/stores/search?searchText=58451,BP,233 STATE ROAD 35,OSCEOLA,WI,54020,90585,,45.24276,-92.697464,,US,fuel
picknsave.com,https://www.picknsave.com/stores/search?searchText=58451,BP,1961 US HIGHWAY 8,ST CROIX FLS,WI,54024,90678,,45.397567,-92.560652,,US,fuel
picknsave.com,https://www.picknsave.com/stores/search?searchText=58451,BP,115 STATE ROAD 35,DRESSER,WI,54009,90259,,45.35085,-92.58676,,US,fuel
picknsave.com,https://www.picknsave.com/stores/search?searchText=58451,BP,702 6TH ST N,HUDSON,WI,54016,90625,,45.00146,-92.7549,,US,fuel
picknsave.com,https://www.picknsave.com/stores/search?searchText=58451,BP,101 ASPEN DR,SOMERSET,WI,54025,90499,,45.123052,-92.654181,,US,fuel
picknsave.com,https://www.picknsave.com/stores/search?searchText=58451,BP,1313 COULEE RD,HUDSON,WI,54016,90484,,44.9635,-92.740449,,US,fuel
picknsave.com,https://www.picknsave.com/stores/search?searchText=58451,BP,1103 COUNTY ROAD A,HUDSON,WI,54016,90669,,45.02166,-92.66645,,US,fuel
picknsave.com,https://www.picknsave.com/stores/search?searchText=58451,BP,100 JEWELL ST,STAR PRAIRIE,WI,54026,90653,,45.18742,-92.52922,,US,fuel
picknsave.com,https://www.picknsave.com/stores/search?searchText=58451,BP,736 W 4TH ST,NEW RICHMOND,WI,54017,90269,,45.1188,-92.548663,,US,fuel
picknsave.com,https://www.picknsave.com/stores/search?searchText=58451,BP,227 N KNOWLES AVE,NEW RICHMOND,WI,54017,90460,,45.12432,-92.53759,,US,fuel
picknsave.com,https://www.picknsave.com/stores/search?searchText=58451,BP,302 LAKE ST N,PRESCOTT,WI,54021,90601,,44.75005,-92.80316,,US,fuel
picknsave.com,https://www.picknsave.com/stores/search?searchText=58451,BP,1492 131ST ST,NEW RICHMOND,WI,54017,90331,,45.078937,-92.535051,,US,fuel
picknsave.com,https://www.picknsave.com/stores/search?searchText=58451,BP,541 CHERRY LN,ROBERTS,WI,54023,90263,,44.9775,-92.555655,,US,fuel
picknsave.com,https://www.picknsave.com/stores/search?searchText=58451,BP,1553 PAULSON RD,RIVER FALLS,WI,54022,90155,,44.87654,-92.62369,,US,fuel
picknsave.com,https://www.picknsave.com/stores/search?searchText=58451,BP,700 N MAIN ST,RIVER FALLS,WI,54022,90338,,44.86736,-92.6218,,US,fuel
picknsave.com,https://www.picknsave.com/stores/search?searchText=58451,BP,1893 HIGHWAY 63,NEW RICHMOND,WI,54017,90546,,45.13503,-92.38387,,US,fuel
picknsave.com,https://www.picknsave.com/stores/search?searchText=58451,BP,960 SOUTH AVE W,CLEAR LAKE,WI,54005,90520,,45.245052,-92.28427,,US,fuel
picknsave.com,https://www.picknsave.com/stores/search?searchText=58451,BP,638 US HIGHWAY 8 W,TURTLE LAKE,WI,54889,90996,,45.39528,-92.15426,,US,fuel
picknsave.com,https://www.picknsave.com/stores/search?searchText=58451,BP,1060 3RD ST,HAMMOND,WI,54015,90436,,44.97517,-92.436834,,US,fuel
picknsave.com,https://www.picknsave.com/stores/search?searchText=58451,BP,110 US HIGHWAY 63,CLAYTON,WI,54004,90672,,45.3327,-92.173,,US,fuel
picknsave.com,https://www.picknsave.com/stores/search?searchText=58451,BP,1633 SUPERIOR AVE,CUMBERLAND,WI,54829,90543,,45.540263,-92.021402,,US,fuel
picknsave.com,https://www.picknsave.com/stores/search?searchText=58451,BP,830 10TH AVE,BALDWIN,WI,54002,90535,,44.96975,-92.37493,,US,fuel
picknsave.com,https://www.picknsave.com/stores/search?searchText=58451,BP,539 COUNTY ROAD B,WOODVILLE,WI,54028,90125,,44.93583,-92.27823,,US,fuel
picknsave.com,https://www.picknsave.com/stores/search?searchText=58451,BP,W2555 STATE ROAD 29,SPRING VALLEY,WI,54767,90373,,44.830144,-92.266579,,US,fuel
picknsave.com,https://www.picknsave.com/stores/search?searchText=58451,BP,404 N MAIN ST,RICE LAKE,WI,54868,90332,,45.505497,-91.733536,,US,fuel
picknsave.com,https://www.picknsave.com/stores/search?searchText=58451,BP,506 HIGHWAY 12 W,KNAPP,WI,54749,90223,,44.954159,-92.085894,,US,fuel
picknsave.com,https://www.picknsave.com/stores/search?searchText=58451,BP,6317 N STATE ROAD 27,STONE LAKE,WI,54876,90140,,45.863851,-91.502467,,US,fuel
picknsave.com,https://www.picknsave.com/stores/search?searchText=58451,BP,104 S 1ST ST,CAMERON,WI,54822,90589,,45.40829,-91.7354,,US,fuel
picknsave.com,https://www.picknsave.com/stores/search?searchText=58451,BP,113 E DALLAS ST,DALLAS,WI,54733,90109,,45.25918,-91.81258,,US,fuel
picknsave.com,https://www.picknsave.com/stores/search?searchText=58451,BP,203 N MAIN ST,BIRCHWOOD,WI,54817,90329,,45.65759,-91.55588,,US,fuel
picknsave.com,https://www.picknsave.com/stores/search?searchText=58451,BP,101 STATE ROAD 25 S,WHEELER,WI,54772,90103,,45.04417,-91.90506,,US,fuel
picknsave.com,https://www.picknsave.com/stores/search?searchText=58451,Loaf \'N Jug,714 South Fourth,Douglas,WY,82633,70024,,42.750628,-105.383004,,US,fuel
picknsave.com,https://www.picknsave.com/stores/search?searchText=58451,BP,1805 BROADWAY ST N,MENOMONIE,WI,54751,90955,,44.902973,-91.932076,,US,fuel
picknsave.com,https://www.picknsave.com/stores/search?searchText=58451,BP,120 2ND ST,CHETEK,WI,54728,90234,,45.30925,-91.65211,,US,fuel
picknsave.com,https://www.picknsave.com/stores/search?searchText=58451,BP,2434 6 7/8 AVE,CHETEK,WI,54728,90429,,45.31563,-91.64723,,US,fuel
picknsave.com,https://www.picknsave.com/stores/search?searchText=58451,BP,1501 9TH ST E,MENOMONIE,WI,54751,90540,,44.869192,-91.91954,,US,fuel
picknsave.com,https://www.picknsave.com/stores/search?searchText=58451,BP,300 3RD ST,PEPIN,WI,54759,90432,,44.44038,-92.14476,,US,fuel
picknsave.com,https://www.picknsave.com/stores/search?searchText=58451,BP,330 W MAIN ST,NEW AUBURN,WI,54757,90106,,45.20392,-91.566255,,US,fuel
picknsave.com,https://www.picknsave.com/stores/search?searchText=58451,BP,10592 W OMAHA ST,RADISSON,WI,54867,90191,,45.77012,-91.219842,,US,fuel
picknsave.com,https://www.picknsave.com/stores/search?searchText=58451,BP,125 MAPLE ST,ODANAH,WI,54861,90423,,46.59237,-90.64925,,US,fuel
picknsave.com,https://www.picknsave.com/stores/search?searchText=31211,North Park,220 Tom Hill Sr Blvd,Macon,GA,31210,00378,4784747582,32.8986106,-83.6914209,"Sun: 5:00 AM - Midnight, Mon: 5:00 AM - Midnight, Tue: 5:00 AM - Midnight, Wed: 5:00 AM - Midnight, Thu: 5:00 AM - Midnight, Fri: 5:00 AM - Midnight, Sat: 5:00 AM - Midnight, ",US,fuel
picknsave.com,https://www.picknsave.com/stores/search?searchText=31211,Eisenhower Crossing,4628 Presidential Pkwy,Macon,GA,31206,00411,4784053910,32.8191186,-83.7109451,"Sun: 6:00 AM - Midnight, Mon: 6:00 AM - Midnight, Tue: 6:00 AM - Midnight, Wed: 6:00 AM - Midnight, Thu: 6:00 AM - Midnight, Fri: 6:00 AM - Midnight, Sat: 6:00 AM - Midnight, ",US,fuel
picknsave.com,https://www.picknsave.com/stores/search?searchText=31211,Plantation Centre,5928 Zebulon Rd,Macon,GA,31210,00425,4787574150,32.8779858,-83.7602033,"Sun: 5:00 AM - Midnight, Mon: 5:00 AM - Midnight, Tue: 5:00 AM - Midnight, Wed: 5:00 AM - Midnight, Thu: 5:00 AM - Midnight, Fri: 5:00 AM - Midnight, Sat: 5:00 AM - Midnight, ",US,fuel
picknsave.com,https://www.picknsave.com/stores/search?searchText=31211,Bridge Pointe,4321 Hartley Bridge Rd,Macon,GA,31216,00400,4787881010,32.7450367,-83.7135919,"Sun: 5:00 AM - Midnight, Mon: 5:00 AM - Midnight, Tue: 5:00 AM - Midnight, Wed: 5:00 AM - Midnight, Thu: 5:00 AM - Midnight, Fri: 5:00 AM - Midnight, Sat: 5:00 AM - Midnight, ",US,fuel
picknsave.com,https://www.picknsave.com/stores/search?searchText=31211,Crossroads Market Warner Robins,3094 Watson Blvd,Warner Robins,GA,31093,00696,4789712320,32.6189172,-83.6953165,"Sun: 5:00 AM - Midnight, Mon: 5:00 AM - Midnight, Tue: 5:00 AM - Midnight, Wed: 5:00 AM - Midnight, Thu: 5:00 AM - Midnight, Fri: 5:00 AM - Midnight, Sat: 5:00 AM - Midnight, ",US,fuel
picknsave.com,https://www.picknsave.com/stores/search?searchText=31211,Parkway Station,115 Russell Pkwy,Warner Robins,GA,31088,00257,4789229047,32.5922284,-83.6255568,"Sun: 5:00 AM - Midnight, Mon: 5:00 AM - Midnight, Tue: 5:00 AM - Midnight, Wed: 5:00 AM - Midnight, Thu: 5:00 AM - Midnight, Fri: 5:00 AM - Midnight, Sat: 5:00 AM - Midnight, ",US,fuel
picknsave.com,https://www.picknsave.com/stores/search?searchText=31211,Nixon Crossing Marketplace,774 GA Highway 96,Bonaire,GA,31005,00641,4789885700,32.552589,-83.659703,"Sun: 24 Hours, Mon: 24 Hours, Tue: 24 Hours, Wed: 24 Hours, Thu: 24 Hours, Fri: 24 Hours, Sat: 24 Hours, ",US,fuel
picknsave.com,https://www.picknsave.com/stores/search?searchText=31211,Milledgeville,2809 N Columbia St,Milledgeville,GA,31061,00694,4784142140,33.153436,-83.2718596,"Sun: 5:00 AM - Midnight, Mon: 5:00 AM - Midnight, Tue: 5:00 AM - Midnight, Wed: 5:00 AM - Midnight, Thu: 5:00 AM - Midnight, Fri: 5:00 AM - Midnight, Sat: 5:00 AM - Midnight, ",US,fuel
picknsave.com,https://www.picknsave.com/stores/search?searchText=31211,Perry Market,1367 Sam Nunn Blvd,Perry,GA,31069,00407,4789888474,32.4673377,-83.7414495,"Sun: 6:00 AM - Midnight, Mon: 6:00 AM - Midnight, Tue: 6:00 AM - Midnight, Wed: 6:00 AM - Midnight, Thu: 6:00 AM - Midnight, Fri: 6:00 AM - Midnight, Sat: 6:00 AM - Midnight, ",US,fuel
picknsave.com,https://www.picknsave.com/stores/search?searchText=20778,BP,5544 MUDDY CREEK RD,WEST RIVER,MD,20778,90383,,38.81491,-76.54858,,US,fuel
picknsave.com,https://www.picknsave.com/stores/search?searchText=20778,BP,3226 SOLOMONS ISLAND RD,EDGEWATER,MD,21037,90253,,38.93085,-76.56789,,US,fuel
picknsave.com,https://www.picknsave.com/stores/search?searchText=20778,BP,551 W CENTRAL AVE,DAVIDSONVILLE,MD,21035,90221,,38.927926,-76.611165,,US,fuel
picknsave.com,https://www.picknsave.com/stores/search?searchText=20778,BP,2975 CHESAPEAKE BEACH RD,DUNKIRK,MD,20754,90437,,38.76145,-76.65523,,US,fuel
picknsave.com,https://www.picknsave.com/stores/search?searchText=20778,BP,3511 CRAIN HWY,UPPR MARLBORO,MD,20774,90106,,38.842082,-76.727379,,US,fuel
picknsave.com,https://www.picknsave.com/stores/search?searchText=20778,Shoppes at Apple Greene,10125 Ward Road,Dunkirk,MD,20754,00270,4435501581,38.717676,-76.658361,"Sun: 7:00 AM - 8:00 PM, Mon: 7:00 AM - 8:00 PM, Tue: 7:00 AM - 8:00 PM, Wed: 7:00 AM - 8:00 PM, Thu: 7:00 AM - 8:00 PM, Fri: 7:00 AM - 8:00 PM, Sat: 7:00 AM - 8:00 PM, ",US,fuel
picknsave.com,https://www.picknsave.com/stores/search?searchText=20778,BP,140 OLD SOLOMONS ISLAND R,ANNAPOLIS,MD,21401,90171,,38.976461,-76.538947,,US,fuel
picknsave.com,https://www.picknsave.com/stores/search?searchText=20778,BP,910 WEST ST,ANNAPOLIS,MD,21401,90385,,38.976529,-76.508191,,US,fuel
picknsave.com,https://www.picknsave.com/stores/search?searchText=20778,BP,111 WEST ST,ANNAPOLIS,MD,21401,90585,,38.977917,-76.497408,,US,fuel
picknsave.com,https://www.picknsave.com/stores/search?searchText=20778,BP,524 DEFENSE HWY,ANNAPOLIS,MD,21401,90336,,38.98784,-76.58493,,US,fuel
picknsave.com,https://www.picknsave.com/stores/search?searchText=20778,BP,1334 DEFENSE HWY,GAMBRILLS,MD,21054,90266,,38.99261,-76.6705,,US,fuel
picknsave.com,https://www.picknsave.com/stores/search?searchText=20778,BP,10604 CAMPUS WAY S,UPPR MARLBORO,MD,20774,90394,,38.89827,-76.82276,,US,fuel
picknsave.com,https://www.picknsave.com/stores/search?searchText=20778,BP,6021 HIGH BRIDGE RD,BOWIE,MD,20720,90525,,38.972545,-76.773483,,US,fuel
picknsave.com,https://www.picknsave.com/stores/search?searchText=20778,BP,320 ROMANCOKE RD,STEVENSVILLE,MD,21666,90169,,38.97307,-76.32652,,US,fuel
picknsave.com,https://www.picknsave.com/stores/search?searchText=20778,BP,12300 ANNAPOLIS RD,GLENN DALE,MD,20769,90612,,38.96459,-76.79349,,US,fuel
picknsave.com,https://www.picknsave.com/stores/search?searchText=20778,BP,738 STATE ROUTE 3 S,GAMBRILLS,MD,21054,90582,,39.05092,-76.66243,,US,fuel
picknsave.com,https://www.picknsave.com/stores/search?searchText=20778,BP,8801 CENTRAL AVE,CAPITOL HGTS,MD,20743,90503,,38.89061,-76.85311,,US,fuel
picknsave.com,https://www.picknsave.com/stores/search?searchText=20778,BP,7614 MARLBORO PIKE,DISTRICT HTS,MD,20747,90589,,38.84544,-76.87511,,US,fuel
picknsave.com,https://www.picknsave.com/stores/search?searchText=20778,BP,9701 ANNAPOLIS RD,LANHAM,MD,20706,90461,,38.96237,-76.83262,,US,fuel
picknsave.com,https://www.picknsave.com/stores/search?searchText=20778,BP,3232 WALTERS LN,DISTRICT HTS,MD,20747,90545,,38.844675,-76.89191,,US,fuel
picknsave.com,https://www.picknsave.com/stores/search?searchText=20778,BP,6701 WALKER MILL RD,CAPITOL HGTS,MD,20743,90405,,38.86738,-76.89205,,US,fuel
picknsave.com,https://www.picknsave.com/stores/search?searchText=20778,BP,9501 LANHAM SEVERN RD,LANHAM,MD,20706,90335,,38.97334,-76.84468,,US,fuel
picknsave.com,https://www.picknsave.com/stores/search?searchText=20778,BP,8749 PINEY ORCHARD PKWY P,ODENTON,MD,21113,90445,,39.066299,-76.720383,,US,fuel
picknsave.com,https://www.picknsave.com/stores/search?searchText=20778,BP,8021 MALCOLM RD,CLINTON,MD,20735,90514,,38.779213,-76.88877,,US,fuel
picknsave.com,https://www.picknsave.com/stores/search?searchText=20778,BP,5806 ALLENTOWN WAY,TEMPLE HILLS,MD,20748,90625,,38.80128,-76.9081,,US,fuel
picknsave.com,https://www.picknsave.com/stores/search?searchText=20778,BP,7733 ANNAPOLIS RD,LANHAM,MD,20706,90325,,38.95303,-76.8778,,US,fuel
picknsave.com,https://www.picknsave.com/stores/search?searchText=20778,BP,5818 MARTIN LUTHER KING J,CAPITOL HGTS,MD,20743,90208,,38.8956,-76.90832,,US,fuel
picknsave.com,https://www.picknsave.com/stores/search?searchText=20778,BP,14807 CRAIN HWY,BRANDYWINE,MD,20613,90309,,38.684966,-76.872421,,US,fuel
picknsave.com,https://www.picknsave.com/stores/search?searchText=20778,BP,4909 MARLBORO PIKE 1,CAPITOL HGTS,MD,20743,90263,,38.872395,-76.925949,,US,fuel
picknsave.com,https://www.picknsave.com/stores/search?searchText=20778,BP,7101 ALLENTOWN RD,FT WASHINGTON,MD,20744,91809,,38.793185,-76.928964,,US,fuel
picknsave.com,https://www.picknsave.com/stores/search?searchText=20778,BP,6321 ANNAPOLIS RD,HYATTSVILLE,MD,20784,90534,,38.93879,-76.90891,,US,fuel
picknsave.com,https://www.picknsave.com/stores/search?searchText=20778,BP,5207 NANNIE HELEN BRGHS A,WASHINGTON,DC,20019,90204,,38.89828,-76.92497,,US,fuel
picknsave.com,https://www.picknsave.com/stores/search?searchText=20778,BP,300 MOUNTAIN RD,PASADENA,MD,21122,90245,,39.131314,-76.562805,,US,fuel
picknsave.com,https://www.picknsave.com/stores/search?searchText=20778,BP,4301 SAINT BARNABAS RD,TEMPLE HILLS,MD,20748,90268,,38.83119,-76.94111,,US,fuel
picknsave.com,https://www.picknsave.com/stores/search?searchText=20778,BP,20 SOUTHWAY,GREENBELT,MD,20770,90602,,38.996368,-76.880416,,US,fuel
picknsave.com,https://www.picknsave.com/stores/search?searchText=20778,BP,3600 SAINT BARNABAS RD,SUITLAND,MD,20746,90347,,38.84025,-76.9419,,US,fuel
picknsave.com,https://www.picknsave.com/stores/search?searchText=20778,BP,4400 BENNING RD NE,WASHINGTON,DC,20019,90363,,38.891385,-76.93897,,US,fuel
picknsave.com,https://www.picknsave.com/stores/search?searchText=20778,BP,4101 ALABAMA AVE SE,WASHINGTON,DC,20019,90126,,38.870806,-76.943469,,US,fuel
picknsave.com,https://www.picknsave.com/stores/search?searchText=20778,BP,1535 KENILWORTH AVE NE,WASHINGTON,DC,20019,90423,,38.910555,-76.93534,,US,fuel
picknsave.com,https://www.picknsave.com/stores/search?searchText=20778,BP,5500 KENILWORTH AVE,RIVERDALE,MD,20737,90586,,38.956845,-76.92204,,US,fuel
picknsave.com,https://www.picknsave.com/stores/search?searchText=20778,BP,2801 ALABAMA AVE SE,WASHINGTON,DC,20020,90467,,38.85939,-76.96778,,US,fuel
picknsave.com,https://www.picknsave.com/stores/search?searchText=20778,BP,2500 PENNSYLVANIA AVE SE,WASHINGTON,DC,20020,90353,,38.87348,-76.97041,,US,fuel
picknsave.com,https://www.picknsave.com/stores/search?searchText=20778,BP,3396 LAUREL FORT MEADE RD,LAUREL,MD,20724,90227,,39.09908,-76.81049,,US,fuel
picknsave.com,https://www.picknsave.com/stores/search?searchText=20778,BP,2420 NEW YORK AVE NE,WASHINGTON,DC,20002,90286,,38.917469,-76.971801,,US,fuel
picknsave.com,https://www.picknsave.com/stores/search?searchText=20778,BP,4429 WHEELER RD,OXON HILL,MD,20745,90138,,38.83176,-76.98632,,US,fuel
picknsave.com,https://www.picknsave.com/stores/search?searchText=20778,BP,3581 LAUREL FORT MEADE RD,LAUREL,MD,20724,90304,,39.100495,-76.825537,,US,fuel
picknsave.com,https://www.picknsave.com/stores/search?searchText=20778,BP,9667 BALTIMORE AVE,COLLEGE PARK,MD,20740,91712,,39.013876,-76.927814,,US,fuel
picknsave.com,https://www.picknsave.com/stores/search?searchText=20778,BP,3315 LEONARDTOWN RD,WALDORF,MD,20601,90613,,38.6212,-76.90126,,US,fuel
picknsave.com,https://www.picknsave.com/stores/search?searchText=20778,BP,13701 BALTIMORE AVE,LAUREL,MD,20707,91813,,39.078945,-76.865775,,US,fuel
picknsave.com,https://www.picknsave.com/stores/search?searchText=20778,BP,4501 EASTERN AVE,MOUNT RAINIER,MD,20712,90348,,38.943485,-76.974022,,US,fuel
picknsave.com,https://www.picknsave.com/stores/search?searchText=25285,Elkview,223 The Crossings S/C,Elkview,WV,25071,00807,3049652750,38.45936,-81.49904,"Sun: 6:00 AM - 11:00 PM, Mon: 6:00 AM - 11:00 PM, Tue: 6:00 AM - 11:00 PM, Wed: 7:00 AM - 11:00 PM, Thu: 6:00 AM - 11:00 PM, Fri: 6:00 AM - 11:00 PM, Sat: 6:00 AM - 11:00 PM, ",US,fuel
picknsave.com,https://www.picknsave.com/stores/search?searchText=25285,Kanawha City,5717 Maccorkle Ave Se,Charleston,WV,25304,00772,3049255447,38.3112419,-81.5652377,"Sun: 6:00 AM - 11:00 PM, Mon: 6:00 AM - 11:00 PM, Tue: 6:00 AM - 11:00 PM, Wed: 6:00 AM - 11:00 PM, Thu: 6:00 AM - 11:00 PM, Fri: 6:00 AM - 11:00 PM, Sat: 6:00 AM - 11:00 PM, ",US,fuel
picknsave.com,https://www.picknsave.com/stores/search?searchText=25285,Delaware Ave,500 Delaware Ave,Charleston,WV,25302,00778,3043426995,38.3627458,-81.6448892,"Sun: 6:00 AM - 11:00 PM, Mon: 6:00 AM - 11:00 PM, Tue: 6:00 AM - 11:00 PM, Wed: 6:00 AM - 11:00 PM, Thu: 6:00 AM - 11:00 PM, Fri: 6:00 AM - 11:00 PM, Sat: 6:00 AM - 11:00 PM, ",US,fuel
picknsave.com,https://www.picknsave.com/stores/search?searchText=25285,Marmet,10635 Maccorkle Ave,Marmet,WV,25315,00754,3049496124,38.2400889,-81.5599386,"Sun: 6:00 AM - 11:00 PM, Mon: 6:00 AM - 11:00 PM, Tue: 6:00 AM - 11:00 PM, Wed: 6:00 AM - 11:00 PM, Thu: 6:00 AM - 11:00 PM, Fri: 6:00 AM - 11:00 PM, Sat: 6:00 AM - 11:00 PM, ",US,fuel
picknsave.com,https://www.picknsave.com/stores/search?searchText=25285,Kroger Charleston,101 Mullins Rd,Charleston,WV,25314,00786,,38.3418356,-81.6652435,"Sun: 24 Hours, Mon: 24 Hours, Tue: 24 Hours, Wed: 24 Hours, Thu: 24 Hours, Fri: 24 Hours, Sat: 24 Hours, ",US,fuel
picknsave.com,https://www.picknsave.com/stores/search?searchText=25285,South Hills,1100 Fledderjohn Rd,Charleston,WV,25314,00785,3043428807,38.3398665,-81.6774653,"Sun: 6:00 AM - Midnight, Mon: 6:00 AM - Midnight, Tue: 6:00 AM - Midnight, Wed: 6:00 AM - Midnight, Thu: 6:00 AM - Midnight, Fri: 6:00 AM - Midnight, Sat: 6:00 AM - Midnight, ",US,fuel
picknsave.com,https://www.picknsave.com/stores/search?searchText=25285,S. Charleston,5 River Walk Mall,South Charleston,WV,25303,00769,3047441472,38.3652643,-81.7102771,"Sun: 6:00 AM - 11:00 PM, Mon: 6:00 AM - 11:00 PM, Tue: 6:00 AM - 11:00 PM, Wed: 6:00 AM - 11:00 PM, Thu: 6:00 AM - 11:00 PM, Fri: 6:00 AM - 11:00 PM, Sat: 6:00 AM - 11:00 PM, ",US,fuel
picknsave.com,https://www.picknsave.com/stores/search?searchText=25285,Dunbar,981 Dunbar Village Plz,Dunbar,WV,25064,00768,3047686481,38.3577902,-81.7345197,"Sun: 6:00 AM - 11:00 PM, Mon: 6:00 AM - 11:00 PM, Tue: 6:00 AM - 11:00 PM, Wed: 6:00 AM - 11:00 PM, Thu: 6:00 AM - 11:00 PM, Fri: 6:00 AM - 11:00 PM, Sat: 6:00 AM - 11:00 PM, ",US,fuel
picknsave.com,https://www.picknsave.com/stores/search?searchText=25285,Cross Lanes,5450 Big Tyler Rd,Charleston,WV,25313,00763,3047765063,38.4275163,-81.7865233,"Sun: 6:00 AM - 11:00 PM, Mon: 6:00 AM - 11:00 PM, Tue: 6:00 AM - 11:00 PM, Wed: 6:00 AM - 11:00 PM, Thu: 6:00 AM - 11:00 PM, Fri: 6:00 AM - 11:00 PM, Sat: 6:00 AM - 11:00 PM, ",US,fuel
picknsave.com,https://www.picknsave.com/stores/search?searchText=25285,Ripley,106 Mcgraw Street,Ripley,WV,25271,00708,3043728221,38.8197513,-81.7218611,"Sun: 6:00 AM - 11:00 PM, Mon: 6:00 AM - 11:00 PM, Tue: 6:00 AM - 11:00 PM, Wed: 6:00 AM - 11:00 PM, Thu: 6:00 AM - 11:00 PM, Fri: 6:00 AM - 11:00 PM, Sat: 6:00 AM - 11:00 PM, ",US,fuel
picknsave.com,https://www.picknsave.com/stores/search?searchText=25285,St. Albans,1439 Maccorkle Ave,Saint Albans,WV,25177,00725,3047224248,38.3871888,-81.8262146,"Sun: 6:00 AM - 11:00 PM, Mon: 6:00 AM - 11:00 PM, Tue: 6:00 AM - 11:00 PM, Wed: 6:00 AM - 11:00 PM, Thu: 6:00 AM - 11:00 PM, Fri: 6:00 AM - 11:00 PM, Sat: 6:00 AM - 11:00 PM, ",US,fuel
picknsave.com,https://www.picknsave.com/stores/search?searchText=25285,Rainelle,406 John Raine Drive,Rainelle,WV,25962,00734,3044388951,37.966503,-80.7748258,"Sun: 6:00 AM - 10:00 PM, Mon: 6:00 AM - 10:00 PM, Tue: 6:00 AM - 10:00 PM, Wed: 6:00 AM - 10:00 PM, Thu: 6:00 AM - 10:00 PM, Fri: 6:00 AM - 10:00 PM, Sat: 6:00 AM - 10:00 PM, ",US,fuel
picknsave.com,https://www.picknsave.com/stores/search?searchText=25285,Teays Valley,302 Great Teays Blvd,Scott Depot,WV,25560,00784,3047577915,38.4524447,-81.9349364,"Sun: 6:00 AM - Midnight, Mon: 6:00 AM - Midnight, Tue: 6:00 AM - Midnight, Wed: 6:00 AM - Midnight, Thu: 6:00 AM - Midnight, Fri: 6:00 AM - Midnight, Sat: 6:00 AM - Midnight, ",US,fuel
picknsave.com,https://www.picknsave.com/stores/search?searchText=25285,Danville,3265 Smoot Ave,Madison,WV,25130,00817,3043691935,38.074603,-81.821733,"Sun: 6:00 AM - 11:00 PM, Mon: 6:00 AM - 11:00 PM, Tue: 6:00 AM - 11:00 PM, Wed: 6:00 AM - 11:00 PM, Thu: 6:00 AM - 11:00 PM, Fri: 6:00 AM - 11:00 PM, Sat: 6:00 AM - 11:00 PM, ",US,fuel
picknsave.com,https://www.picknsave.com/stores/search?searchText=25285,Beckley Crossing,133 Beckley Crossing,Beckley,WV,25801,00790,3042525573,37.8012928,-81.1816577,"Sun: 6:00 AM - 11:00 PM, Mon: 6:00 AM - 11:00 PM, Tue: 6:00 AM - 11:00 PM, Wed: 6:00 AM - 11:00 PM, Thu: 6:00 AM - 11:00 PM, Fri: 6:00 AM - 11:00 PM, Sat: 6:00 AM - 11:00 PM, ",US,fuel
picknsave.com,https://www.picknsave.com/stores/search?searchText=25285,Harper Road,1734 Harper Rd,Beckley,WV,25801,00805,3042540520,37.7891065,-81.2025531,"Sun: 6:00 AM - 11:00 PM, Mon: 6:00 AM - 11:00 PM, Tue: 6:00 AM - 11:00 PM, Wed: 6:00 AM - 11:00 PM, Thu: 6:00 AM - 11:00 PM, Fri: 6:00 AM - 11:00 PM, Sat: 6:00 AM - 11:00 PM, ",US,fuel
picknsave.com,https://www.picknsave.com/stores/search?searchText=25285,Division,930 Division St,Parkersburg,WV,26101,00753,3044288533,39.2494206,-81.5574612,"Sun: 6:00 AM - 11:00 PM, Mon: 6:00 AM - 11:00 PM, Tue: 6:00 AM - 11:00 PM, Wed: 6:00 AM - 11:00 PM, Thu: 6:00 AM - 11:00 PM, Fri: 6:00 AM - 11:00 PM, Sat: 6:00 AM - 11:00 PM, ",US,fuel
picknsave.com,https://www.picknsave.com/stores/search?searchText=25285,7th Street,2007 7Th St,Parkersburg,WV,26101,00752,3044246369,39.2698071,-81.5213775,"Sun: 6:00 AM - 11:00 PM, Mon: 6:00 AM - 11:00 PM, Tue: 6:00 AM - 11:00 PM, Wed: 6:00 AM - 11:00 PM, Thu: 6:00 AM - 11:00 PM, Fri: 6:00 AM - 11:00 PM, Sat: 6:00 AM - 11:00 PM, ",US,fuel
picknsave.com,https://www.picknsave.com/stores/search?searchText=25285,Belpre,1008 Washington Blvd,Belpre,OH,45714,00799,7404235885,39.2754747,-81.5806893,"Sun: 6:00 AM - 11:00 PM, Mon: 6:00 AM - 11:00 PM, Tue: 6:00 AM - 11:00 PM, Wed: 6:00 AM - 11:00 PM, Thu: 6:00 AM - 11:00 PM, Fri: 6:00 AM - 11:00 PM, Sat: 6:00 AM - 11:00 PM, ",US,fuel
picknsave.com,https://www.picknsave.com/stores/search?searchText=25285,Hinton,308 Stokes Dr,Hinton,WV,25951,00743,3044664888,37.6600022,-80.8910937,"Sun: 6:00 AM - 10:00 PM, Mon: 6:00 AM - 10:00 PM, Tue: 6:00 AM - 10:00 PM, Wed: 6:00 AM - 10:00 PM, Thu: 6:00 AM - 10:00 PM, Fri: 6:00 AM - 10:00 PM, Sat: 6:00 AM - 10:00 PM, ",US,fuel
picknsave.com,https://www.picknsave.com/stores/search?searchText=25285,Marietta,40 Acme St,Marietta,OH,45750,00776,7403745855,39.4123277,-81.428585,"Sun: 6:00 AM - 11:00 PM, Mon: 6:00 AM - 11:00 PM, Tue: 6:00 AM - 11:00 PM, Wed: 6:00 AM - 11:00 PM, Thu: 6:00 AM - 11:00 PM, Fri: 6:00 AM - 11:00 PM, Sat: 6:00 AM - 11:00 PM, ",US,fuel
picknsave.com,https://www.picknsave.com/stores/search?searchText=25285,Barboursville,6360 Us Route 60 E,Barboursville,WV,25504,00788,3047333370,38.4156976,-82.3025786,"Sun: 6:00 AM - Midnight, Mon: 6:00 AM - Midnight, Tue: 6:00 AM - Midnight, Wed: 6:00 AM - Midnight, Thu: 6:00 AM - Midnight, Fri: 6:00 AM - Midnight, Sat: 6:00 AM - Midnight, ",US,fuel
picknsave.com,https://www.picknsave.com/stores/search?searchText=25285,Fairlea,178 Red Oaks Shopping Center,Ronceverte,WV,24970,00765,3046457411,37.7682688,-80.467048,"Sun: 6:00 AM - 11:00 PM, Mon: 6:00 AM - 11:00 PM, Tue: 6:00 AM - 11:00 PM, Wed: 6:00 AM - 11:00 PM, Thu: 6:00 AM - 11:00 PM, Fri: 6:00 AM - 11:00 PM, Sat: 6:00 AM - 11:00 PM, ",US,fuel
picknsave.com,https://www.picknsave.com/stores/search?searchText=25285,Kroger,102 Emily Dr,Clarksburg,WV,26301,00774,3046231015,39.279107,-80.279628,"Sun: 6:00 AM - Midnight, Mon: 6:00 AM - Midnight, Tue: 6:00 AM - Midnight, Wed: 6:00 AM - Midnight, Thu: 6:00 AM - Midnight, Fri: 6:00 AM - Midnight, Sat: 6:00 AM - Midnight, ",US,fuel
picknsave.com,https://www.picknsave.com/stores/search?searchText=25285,5Th Avenue,2627 5Th Ave,Huntington,WV,25702,00792,3045290670,38.4252641,-82.4067332,"Sun: 6:00 AM - 11:00 PM, Mon: 6:00 AM - 11:00 PM, Tue: 6:00 AM - 11:00 PM, Wed: 6:00 AM - 11:00 PM, Thu: 6:00 AM - 11:00 PM, Fri: 6:00 AM - 11:00 PM, Sat: 6:00 AM - 11:00 PM, ",US,fuel
picknsave.com,https://www.picknsave.com/stores/search?searchText=25285,7Th Ave,19 7Th Ave W,Huntington,WV,25701,00782,3045221201,38.4138346,-82.4567304,"Sun: 6:00 AM - 11:00 PM, Mon: 6:00 AM - 11:00 PM, Tue: 6:00 AM - 11:00 PM, Wed: 6:00 AM - 11:00 PM, Thu: 6:00 AM - 11:00 PM, Fri: 6:00 AM - 11:00 PM, Sat: 6:00 AM - 11:00 PM, ",US,fuel
picknsave.com,https://www.picknsave.com/stores/search?searchText=75238,Northview Plaza,10677 E Northwest Hwy,Dallas,TX,75238,00511,2145530607,32.8656047,-96.7015117,"Sun: 6:00 AM - 1:00 AM, Mon: 6:00 AM - 1:00 AM, Tue: 6:00 AM - 1:00 AM, Wed: 6:00 AM - 1:00 AM, Thu: 6:00 AM - 1:00 AM, Fri: 6:00 AM - 1:00 AM, Sat: 6:00 AM - 1:00 AM, ",US,fuel
picknsave.com,https://www.picknsave.com/stores/search?searchText=75238,Garland Towne Centre,1406 W Walnut St,Garland,TX,75042,00559,9724944487,32.9145293,-96.6498875,"Sun: 6:00 AM - 1:00 AM, Mon: 6:00 AM - 1:00 AM, Tue: 6:00 AM - 1:00 AM, Wed: 6:00 AM - 1:00 AM, Thu: 6:00 AM - 1:00 AM, Fri: 6:00 AM - 1:00 AM, Sat: 6:00 AM - 1:00 AM, ",US,fuel
picknsave.com,https://www.picknsave.com/stores/search?searchText=75238,Buckingham,536 Centennial Blvd,Richardson,TX,75081,00526,9724372233,32.9364567,-96.7206467,"Sun: 6:00 AM - 1:00 AM, Mon: 6:00 AM - 1:00 AM, Tue: 6:00 AM - 1:00 AM, Wed: 6:00 AM - 1:00 AM, Thu: 6:00 AM - 1:00 AM, Fri: 6:00 AM - 1:00 AM, Sat: 6:00 AM - 1:00 AM, ",US,fuel
picknsave.com,https://www.picknsave.com/stores/search?searchText=75238,Towne Crossing,3600 Gus Thomasson Rd Ste 150,Mesquite,TX,75150,00450,9722703589,32.8138433,-96.6333069,"Sun: 6:00 AM - 1:00 AM, Mon: 6:00 AM - 1:00 AM, Tue: 6:00 AM - 1:00 AM, Wed: 6:00 AM - 1:00 AM, Thu: 6:00 AM - 1:00 AM, Fri: 6:00 AM - 1:00 AM, Sat: 6:00 AM - 1:00 AM, ",US,fuel
picknsave.com,https://www.picknsave.com/stores/search?searchText=79342,"2B STATE ROAD 344, EDGEWOOD, NM",2B State Road 344,Edgewood,NM,87015,00424,5052866691,35.0615633,-106.1895066,"Sun: 6:00 AM - 10:00 PM, Mon: 6:00 AM - 10:00 PM, Tue: 6:00 AM - 10:00 PM, Wed: 6:00 AM - 10:00 PM, Thu: 6:00 AM - 10:00 PM, Fri: 6:00 AM - 10:00 PM, Sat: 6:00 AM - 10:00 PM, ",US,fuel
picknsave.com,https://www.picknsave.com/stores/search?searchText=79342,Granbury,3915 US-377,Granbury,TX,76049,00917,6824984222,32.453756,-97.726804,"Sun: 6:00 AM - 1:00 AM, Mon: 6:00 AM - 1:00 AM, Tue: 6:00 AM - 1:00 AM, Wed: 6:00 AM - 1:00 AM, Thu: 6:00 AM - 1:00 AM, Fri: 6:00 AM - 1:00 AM, Sat: 6:00 AM - 1:00 AM, ",US,fuel
picknsave.com,https://www.picknsave.com/stores/search?searchText=79342,Tramway Central,200 Tramway Blvd Se,Albuquerque,NM,87123,00427,5052961544,35.0669314,-106.4961468,"Sun: 6:00 AM - 10:00 PM, Mon: 6:00 AM - 10:00 PM, Tue: 6:00 AM - 10:00 PM, Wed: 6:00 AM - 10:00 PM, Thu: 6:00 AM - 10:00 PM, Fri: 6:00 AM - 10:00 PM, Sat: 6:00 AM - 10:00 PM, ",US,fuel
picknsave.com,https://www.picknsave.com/stores/search?searchText=79342,Plaza Del Sol,2110 S Pacheco St,Santa Fe,NM,87505,00491,5054735560,35.657437,-105.959747,"Sun: 6:00 AM - 10:00 PM, Mon: 6:00 AM - 10:00 PM, Tue: 6:00 AM - 10:00 PM, Wed: 6:00 AM - 10:00 PM, Thu: 6:00 AM - 10:00 PM, Fri: 6:00 AM - 10:00 PM, Sat: 6:00 AM - 10:00 PM, ",US,fuel
picknsave.com,https://www.picknsave.com/stores/search?searchText=79342,"2308 CERRILLOS RD., SANTA FE, NM",2308 Cerrillos Rd,Santa Fe,NM,87505,00461,5054719024,35.6594342,-105.979901,"Sun: 6:00 AM - 10:00 PM, Mon: 6:00 AM - 10:00 PM, Tue: 6:00 AM - 10:00 PM, Wed: 6:00 AM - 10:00 PM, Thu: 6:00 AM - 10:00 PM, Fri: 6:00 AM - 10:00 PM, Sat: 6:00 AM - 10:00 PM, ",US,fuel
picknsave.com,https://www.picknsave.com/stores/search?searchText=79342,Valencia Y Shopping Center,2580 Main St Ne,Los Lunas,NM,87031,00414,5058653330,34.8089516,-106.7023818,"Sun: 6:00 AM - 10:00 PM, Mon: 6:00 AM - 10:00 PM, Tue: 6:00 AM - 10:00 PM, Wed: 6:00 AM - 10:00 PM, Thu: 6:00 AM - 10:00 PM, Fri: 6:00 AM - 10:00 PM, Sat: 6:00 AM - 10:00 PM, ",US,fuel
picknsave.com,https://www.picknsave.com/stores/search?searchText=79342,"5850 EUBANK BLVD. NE, ALBUQUERQUE, NM",5850 Eubank Blvd Ne,Albuquerque,NM,87111,00494,5052990848,35.1466933,-106.5276099,"Sun: 6:00 AM - 10:00 PM, Mon: 6:00 AM - 10:00 PM, Tue: 6:00 AM - 10:00 PM, Wed: 6:00 AM - 10:00 PM, Thu: 6:00 AM - 10:00 PM, Fri: 6:00 AM - 10:00 PM, Sat: 6:00 AM - 10:00 PM, ",US,fuel
picknsave.com,https://www.picknsave.com/stores/search?searchText=79342,Fair Plaza Shopping Center,6001 Lomas Blvd Ne,Albuquerque,NM,87110,00446,5052667401,35.0881112,-106.5791873,"Sun: 6:00 AM - 10:00 PM, Mon: 6:00 AM - 10:00 PM, Tue: 6:00 AM - 10:00 PM, Wed: 6:00 AM - 10:00 PM, Thu: 6:00 AM - 10:00 PM, Fri: 6:00 AM - 10:00 PM, Sat: 6:00 AM - 10:00 PM, ",US,fuel
picknsave.com,https://www.picknsave.com/stores/search?searchText=79342,"4016 LOUISIANA BLVD. NE, ALBUQUERQUE, NM",4016 Louisiana Blvd Ne,Albuquerque,NM,87110,00485,5058841860,35.1293234,-106.5674173,"Sun: 6:00 AM - 10:00 PM, Mon: 6:00 AM - 10:00 PM, Tue: 6:00 AM - 10:00 PM, Wed: 6:00 AM - 10:00 PM, Thu: 6:00 AM - 10:00 PM, Fri: 6:00 AM - 10:00 PM, Sat: 6:00 AM - 10:00 PM, ",US,fuel
picknsave.com,https://www.picknsave.com/stores/search?searchText=41605,Danville,3265 Smoot Ave,Madison,WV,25130,00817,3043691935,38.074603,-81.821733,"Sun: 6:00 AM - 11:00 PM, Mon: 6:00 AM - 11:00 PM, Tue: 6:00 AM - 11:00 PM, Wed: 6:00 AM - 11:00 PM, Thu: 6:00 AM - 11:00 PM, Fri: 6:00 AM - 11:00 PM, Sat: 6:00 AM - 11:00 PM, ",US,fuel
picknsave.com,https://www.picknsave.com/stores/search?searchText=41605,7Th Ave,19 7Th Ave W,Huntington,WV,25701,00782,3045221201,38.4138346,-82.4567304,"Sun: 6:00 AM - 11:00 PM, Mon: 6:00 AM - 11:00 PM, Tue: 6:00 AM - 11:00 PM, Wed: 6:00 AM - 11:00 PM, Thu: 6:00 AM - 11:00 PM, Fri: 6:00 AM - 11:00 PM, Sat: 6:00 AM - 11:00 PM, ",US,fuel
picknsave.com,https://www.picknsave.com/stores/search?searchText=41605,5Th Avenue,2627 5Th Ave,Huntington,WV,25702,00792,3045290670,38.4252641,-82.4067332,"Sun: 6:00 AM - 11:00 PM, Mon: 6:00 AM - 11:00 PM, Tue: 6:00 AM - 11:00 PM, Wed: 6:00 AM - 11:00 PM, Thu: 6:00 AM - 11:00 PM, Fri: 6:00 AM - 11:00 PM, Sat: 6:00 AM - 11:00 PM, ",US,fuel
picknsave.com,https://www.picknsave.com/stores/search?searchText=41605,Barboursville,6360 Us Route 60 E,Barboursville,WV,25504,00788,3047333370,38.4156976,-82.3025786,"Sun: 6:00 AM - Midnight, Mon: 6:00 AM - Midnight, Tue: 6:00 AM - Midnight, Wed: 6:00 AM - Midnight, Thu: 6:00 AM - Midnight, Fri: 6:00 AM - Midnight, Sat: 6:00 AM - Midnight, ",US,fuel
picknsave.com,https://www.picknsave.com/stores/search?searchText=41605,Mid Town,711 Martin Luther King Jr Blvd,Ashland,KY,41101,00783,6063258231,38.4776993,-82.6497272,"Sun: 6:00 AM - 11:00 PM, Mon: 6:00 AM - 11:00 PM, Tue: 6:00 AM - 11:00 PM, Wed: 6:00 AM - 11:00 PM, Thu: 6:00 AM - 11:00 PM, Fri: 6:00 AM - 11:00 PM, Sat: 6:00 AM - 11:00 PM, ",US,fuel
picknsave.com,https://www.picknsave.com/stores/search?searchText=41605,Trademore Center,300 Trademore Center,Morehead,KY,40351,00734,6067847529,38.1920522,-83.4852587,"Sun: 6:00 AM - Midnight, Mon: 6:00 AM - Midnight, Tue: 6:00 AM - Midnight, Wed: 6:00 AM - Midnight, Thu: 6:00 AM - Midnight, Fri: 6:00 AM - Midnight, Sat: 6:00 AM - Midnight, ",US,fuel
picknsave.com,https://www.picknsave.com/stores/search?searchText=41605,Diederich,370 Diederich Blvd,Ashland,KY,41101,00796,6063258911,38.501485,-82.6816677,"Sun: 6:00 AM - 11:00 PM, Mon: 6:00 AM - 11:00 PM, Tue: 6:00 AM - 11:00 PM, Wed: 6:00 AM - 11:00 PM, Thu: 6:00 AM - 11:00 PM, Fri: 6:00 AM - 11:00 PM, Sat: 6:00 AM - 11:00 PM, ",US,fuel
picknsave.com,https://www.picknsave.com/stores/search?searchText=41605,Abingdon,466 Cummings St,Abingdon,VA,24210,00255,2766286015,36.7059125,-81.9740139,"Sun: 6:00 AM - 11:00 PM, Mon: 6:00 AM - 11:00 PM, Tue: 6:00 AM - 11:00 PM, Wed: 6:00 AM - 11:00 PM, Thu: 6:00 AM - 11:00 PM, Fri: 6:00 AM - 11:00 PM, Sat: 6:00 AM - 11:00 PM, ",US,fuel
picknsave.com,https://www.picknsave.com/stores/search?searchText=41605,Kingsport,1664 E Stone Dr,Kingsport,TN,37660,00328,4233920844,36.5487385,-82.5157411,"Sun: 6:00 AM - 11:00 PM, Mon: 6:00 AM - 11:00 PM, Tue: 6:00 AM - 11:00 PM, Wed: 6:00 AM - 11:00 PM, Thu: 6:00 AM - 11:00 PM, Fri: 6:00 AM - 11:00 PM, Sat: 6:00 AM - 11:00 PM, ",US,fuel
picknsave.com,https://www.picknsave.com/stores/search?searchText=75630,Longview,701 W Marshall Ave,Longview,TX,75601,00959,9037581726,32.5000382,-94.7495638,"Sun: 6:00 AM - 1:00 AM, Mon: 6:00 AM - 1:00 AM, Tue: 6:00 AM - 1:00 AM, Wed: 6:00 AM - 1:00 AM, Thu: 6:00 AM - 1:00 AM, Fri: 6:00 AM - 1:00 AM, Sat: 6:00 AM - 1:00 AM, ",US,fuel
